City_ID,City,Country,Date,Lat,Lng,Max Temp,Humidity,Cloudiness,Wind Speed
0,Arraial Do Cabo,BR,2022-07-17 23:13:32,-22.9661,-42.0278,72.34,84,52,15.86
1,Bilma,NE,2022-07-17 23:08:42,18.6853,12.9164,88.52,36,31,3.67
2,Busselton,AU,2022-07-17 23:13:33,-33.65,115.3333,54.12,90,95,14.45
3,Hovd,MN,2022-07-17 23:13:33,48.0056,91.6419,63.72,44,10,9.26
4,Clyde River,CA,2022-07-17 23:13:34,70.4692,-68.5914,39.51,75,6,6.85
5,Thayetmyo,MM,2022-07-17 23:13:34,19.3167,95.1833,75.61,96,82,3.42
6,Cairns,AU,2022-07-17 23:13:35,-16.9167,145.7667,74.1,74,32,9.22
7,Torbay,CA,2022-07-17 23:13:35,47.6666,-52.7314,67.28,75,100,12.28
8,Upernavik,GL,2022-07-17 23:13:36,72.7868,-56.1549,40.42,92,26,13.69
9,Laguna,US,2022-07-17 23:13:36,38.421,-121.4238,108.75,17,0,13.8
10,Bijie,CN,2022-07-17 23:08:48,27.3125,105.2942,67.66,97,100,3.38
11,Bang Saphan,TH,2022-07-17 23:09:11,11.2126,99.5117,76.33,91,84,4.16
12,Yulara,AU,2022-07-17 23:13:37,-25.2406,130.9889,49.48,48,74,9.26
13,Lebu,CL,2022-07-17 23:13:38,-37.6167,-73.65,47.1,76,39,13.2
14,Sitka,US,2022-07-17 23:13:38,57.0531,-135.33,55.29,88,100,6.91
15,Rorvik,NO,2022-07-17 23:13:39,64.8621,11.2373,53.11,87,100,16.89
16,Atuona,PF,2022-07-17 23:13:39,-9.8,-139.0333,78.12,78,12,19.77
17,Mataura,NZ,2022-07-17 23:13:40,-46.1927,168.8643,53.47,55,98,13.35
18,Provideniya,RU,2022-07-17 23:13:40,64.3833,-173.3,50.36,71,40,22.37
19,Sovetskiy,RU,2022-07-17 23:13:41,61.3614,63.5842,58.21,61,100,2.71
20,Ushuaia,AR,2022-07-17 23:13:42,-54.8,-68.3,38.86,56,20,3.44
21,Nelson Bay,AU,2022-07-17 23:13:42,-32.7167,152.15,59.0,64,6,10.0
22,Opuwo,NA,2022-07-17 23:13:43,-18.0607,13.84,59.47,37,0,8.68
23,Ponta Do Sol,PT,2022-07-17 23:13:43,32.6667,-17.1,73.0,83,16,4.63
24,Esperance,AU,2022-07-17 23:13:44,-33.8667,121.9,53.8,92,100,16.62
25,Akyab,MM,2022-07-17 23:13:44,20.15,92.9,80.69,86,85,6.98
26,Airai,TL,2022-07-17 23:13:45,-8.9266,125.4092,56.43,81,40,2.98
27,Kimbe,PG,2022-07-17 23:13:45,-5.5502,150.1429,83.62,72,35,3.38
28,Saskylakh,RU,2022-07-17 23:13:46,71.9167,114.0833,50.63,47,98,9.66
29,Rikitea,PF,2022-07-17 23:13:46,-23.1203,-134.9692,73.62,80,91,12.91
30,Jacmel,HT,2022-07-17 23:13:47,18.2342,-72.5347,89.44,68,14,9.82
31,Mwinilunga,ZM,2022-07-17 23:13:47,-11.7358,24.4293,51.84,56,11,4.65
32,Yellowknife,CA,2022-07-17 23:13:48,62.456,-114.3525,68.09,57,100,12.39
33,Gambela,ET,2022-07-17 23:13:48,8.25,34.5833,70.34,96,100,2.98
34,Turukhansk,RU,2022-07-17 23:13:49,65.8167,87.9833,55.62,65,35,10.47
35,Kapaa,US,2022-07-17 23:13:49,22.0752,-159.319,85.98,73,75,14.97
36,Avarua,CK,2022-07-17 23:13:50,-21.2078,-159.775,77.05,73,100,12.66
37,Punta Arenas,CL,2022-07-17 23:13:08,-53.15,-70.9167,33.91,86,0,32.21
38,Touba,CI,2022-07-17 23:13:51,8.2833,-7.6833,70.38,96,99,7.96
39,Port Elizabeth,ZA,2022-07-17 23:13:51,-33.918,25.5701,73.09,36,2,13.09
40,Kruisfontein,ZA,2022-07-17 23:13:52,-34.0033,24.7314,70.88,42,1,8.68
41,Swift Current,CA,2022-07-17 23:13:52,50.2834,-107.8014,93.58,22,0,12.66
42,Saint-Philippe,RE,2022-07-17 23:13:52,-21.3585,55.7679,67.59,78,54,12.73
43,Khatanga,RU,2022-07-17 23:13:53,71.9667,102.5,59.16,60,100,4.32
44,Sudbury,CA,2022-07-17 23:12:28,46.49,-80.99,81.05,41,1,4.0
45,Souillac,MU,2022-07-17 23:13:54,-20.5167,57.5167,69.37,70,67,17.31
46,Butaritari,KI,2022-07-17 23:13:54,3.0707,172.7902,81.93,74,66,11.36
47,Oktyabrskoye,RU,2022-07-17 23:13:55,43.0645,44.7417,66.34,88,2,2.24
48,Hilo,US,2022-07-17 23:14:25,19.7297,-155.09,92.28,74,75,12.66
49,Iranshahr,IR,2022-07-17 23:14:55,27.2025,60.6848,92.57,48,100,9.22
50,Srednekolymsk,RU,2022-07-17 23:14:56,67.45,153.6833,56.32,40,9,9.86
51,Carnarvon,AU,2022-07-17 23:11:08,-24.8667,113.6333,57.27,100,40,5.75
52,Bethel,US,2022-07-17 23:14:37,41.3712,-73.414,80.69,70,0,5.75
53,Albany,US,2022-07-17 23:14:57,42.6001,-73.9662,86.65,55,99,6.2
54,Mayumba,GA,2022-07-17 23:14:58,-3.432,10.6554,69.71,89,30,3.09
55,Vaini,TO,2022-07-17 23:14:58,-21.2,-175.2,77.16,88,75,9.22
56,San Patricio,US,2022-07-17 23:14:59,28.017,-97.5169,95.18,46,81,15.43
57,Port Hedland,AU,2022-07-17 23:14:59,-20.3167,118.5667,53.65,62,2,4.61
58,Domodossola,IT,2022-07-17 23:15:00,46.1165,8.2931,76.24,80,21,3.24
59,Victoria,HK,2022-07-17 23:12:40,22.2855,114.1577,86.97,83,100,10.0
60,Muisne,EC,2022-07-17 23:15:01,0.6,-80.0333,74.86,86,100,9.28
61,Chapais,CA,2022-07-17 23:15:01,49.7834,-74.8492,75.9,46,72,2.57
62,Mar Del Plata,AR,2022-07-17 23:12:42,-38.0023,-57.5575,54.09,50,0,16.11
63,Setubal,PT,2022-07-17 23:15:02,38.5244,-8.8882,70.5,87,2,3.18
64,Komsomolskiy,UZ,2022-07-17 23:15:02,40.4272,71.7189,77.72,38,0,2.3
65,Gazojak,TM,2022-07-17 23:15:03,41.1875,61.4036,87.84,16,0,11.72
66,Saint-Pierre,RE,2022-07-17 23:15:03,-21.3393,55.4781,69.48,67,20,16.11
67,Nicoya,CR,2022-07-17 23:15:04,10.1483,-85.452,79.5,86,95,3.51
68,Kodiak,US,2022-07-17 23:15:04,57.79,-152.4072,56.77,70,87,4.92
69,Padang,ID,2022-07-17 23:15:05,-0.9492,100.3543,69.85,75,16,4.03
70,Naqadeh,IR,2022-07-17 23:15:06,36.9553,45.388,74.43,41,0,4.0
71,Alakurtti,RU,2022-07-17 23:15:06,66.9672,30.3491,50.32,95,31,3.13
72,Barrow,US,2022-07-17 23:15:07,71.2906,-156.7887,42.82,81,100,12.66
73,Bluff,NZ,2022-07-17 23:15:07,-46.6,168.3333,54.81,64,100,23.0
74,Kalmunai,LK,2022-07-17 23:15:08,7.4167,81.8167,79.81,80,100,4.29
75,Pasighat,IN,2022-07-17 23:15:08,28.0667,95.3333,76.73,97,55,1.63
76,Cherskiy,RU,2022-07-17 23:15:09,68.75,161.3,42.22,53,98,16.28
77,Puerto Ayora,EC,2022-07-17 23:15:10,-0.7393,-90.3518,69.55,90,66,5.99
78,Vila Franca Do Campo,PT,2022-07-17 23:15:10,37.7167,-25.4333,75.2,83,46,5.68
79,Iqaluit,CA,2022-07-17 23:15:11,63.7506,-68.5145,42.53,93,75,8.99
80,Saint George,US,2022-07-17 23:13:44,37.1041,-113.5841,108.63,16,0,16.11
81,Jaranwala,PK,2022-07-17 23:15:11,31.3333,73.4333,84.0,67,21,3.67
82,Port Alfred,ZA,2022-07-17 23:15:12,-33.5906,26.891,68.49,36,0,12.26
83,Plettenberg Bay,ZA,2022-07-17 23:15:12,-34.0527,23.3716,60.75,79,1,2.84
84,Sabha,LY,2022-07-17 23:15:13,27.0377,14.4283,80.04,17,0,10.16
85,Jamestown,US,2022-07-17 23:11:08,42.097,-79.2353,72.99,87,75,4.61
86,Tezu,IN,2022-07-17 23:15:14,27.9167,96.1667,76.78,98,82,2.21
87,Severo-Kurilsk,RU,2022-07-17 23:15:15,50.6789,156.125,56.12,92,100,2.01
88,Castro,BR,2022-07-17 23:15:15,-24.7911,-50.0119,61.72,90,100,2.55
89,Constitucion,CL,2022-07-17 23:15:16,-35.3333,-72.4167,49.69,93,100,6.31
90,Tessalit,ML,2022-07-17 23:15:16,20.1986,1.0114,92.93,26,97,7.74
91,Katherine,AU,2022-07-17 23:15:17,-14.4667,132.2667,61.12,94,17,4.61
92,Axim,GH,2022-07-17 23:16:17,4.8699,-2.2405,74.07,82,52,8.23
93,Termiz,UZ,2022-07-17 23:16:18,37.2242,67.2783,78.89,34,0,2.3
94,Kampong Cham,KH,2022-07-17 23:16:18,11.9934,105.4635,76.69,92,100,4.36
95,Chokurdakh,RU,2022-07-17 23:16:19,70.6333,147.9167,50.86,51,7,12.28
96,Bara,NG,2022-07-17 23:16:19,10.3744,10.7288,70.34,94,97,2.19
97,Sao Filipe,CV,2022-07-17 23:16:20,14.8961,-24.4956,74.89,80,29,13.98
98,Trincomalee,LK,2022-07-17 23:16:21,8.5711,81.2335,81.0,77,100,15.48
99,Fortuna,US,2022-07-17 23:11:41,40.5982,-124.1573,68.09,69,5,5.01
100,Sabang,ID,2022-07-17 23:16:21,5.8933,95.3214,81.79,77,52,7.72
101,Fairbanks,US,2022-07-17 23:16:02,64.8378,-147.7164,68.0,48,40,9.22
102,Hasaki,JP,2022-07-17 23:16:22,35.7333,140.8333,79.29,83,99,5.73
103,Preobrazheniye,RU,2022-07-17 23:16:23,42.9019,133.9064,63.39,88,97,7.85
104,Hermanus,ZA,2022-07-17 23:16:23,-34.4187,19.2345,49.8,82,0,7.27
105,Tromso,NO,2022-07-17 23:16:23,69.6496,18.957,48.22,87,75,5.75
106,Mbanza-Ngungu,CD,2022-07-17 23:16:24,-5.25,14.8667,68.16,72,29,10.13
107,New Norfolk,AU,2022-07-17 23:16:24,-42.7826,147.0587,39.7,79,90,1.99
108,Pevek,RU,2022-07-17 23:16:25,69.7008,170.3133,31.93,92,100,29.37
109,Ankang,CN,2022-07-17 23:16:25,32.68,109.0172,71.6,90,100,1.45
110,Gat,IL,2022-07-17 23:16:26,31.61,34.7642,78.4,100,0,1.12
111,Georgetown,MY,2022-07-17 23:12:37,5.4112,100.3354,82.89,88,20,0.0
112,Krasnoselkup,RU,2022-07-17 23:16:27,65.7,82.4667,53.53,79,18,10.33
113,Porosozero,RU,2022-07-17 23:16:27,62.7191,32.727,48.45,91,15,4.52
114,Riyadh,SA,2022-07-17 23:16:28,24.6877,46.7219,89.74,12,11,9.19
115,Tasiilaq,GL,2022-07-17 23:16:28,65.6145,-37.6368,41.16,78,67,5.14
116,Makaha,US,2022-07-17 23:16:29,21.4694,-158.2175,84.11,65,100,12.77
117,Faanui,PF,2022-07-17 23:16:29,-16.4833,-151.75,77.32,69,85,16.4
118,Grand Gaube,MU,2022-07-17 23:16:30,-20.0064,57.6608,70.2,69,69,7.0
119,Tura,IN,2022-07-17 23:16:30,25.5198,90.2201,74.57,95,99,4.41
120,Tautira,PF,2022-07-17 23:16:31,-17.7333,-149.15,74.89,73,50,12.17
121,Uvat,RU,2022-07-17 23:16:31,59.1433,68.8953,56.21,72,40,3.8
122,Pochutla,MX,2022-07-17 23:16:31,15.7432,-96.4661,85.82,66,100,4.9
123,Bredasdorp,ZA,2022-07-17 23:16:32,-34.5322,20.0403,53.1,87,0,4.43
124,Leningradskiy,RU,2022-07-17 23:16:32,69.3833,178.4167,32.68,96,90,22.93
125,Makakilo City,US,2022-07-17 23:16:33,21.3469,-158.0858,82.72,70,75,11.5
126,Berezovyy,RU,2022-07-17 23:16:33,51.6667,135.7,68.56,75,99,3.6
127,Sioux Lookout,CA,2022-07-17 23:16:34,50.1001,-91.917,86.07,45,75,11.5
128,Hobart,AU,2022-07-17 23:15:02,-42.8794,147.3294,40.05,80,40,6.91
129,Cao Bang,VN,2022-07-17 23:16:35,22.6667,106.25,78.39,98,100,3.02
130,Saint-Augustin,CA,2022-07-17 23:16:35,51.226,-58.6502,58.33,94,97,14.81
131,Balasheyka,RU,2022-07-17 23:16:36,53.2841,48.0851,62.62,77,0,1.99
132,Warri,NG,2022-07-17 23:16:36,5.5167,5.75,73.72,86,82,4.32
133,Yamada,JP,2022-07-17 23:16:37,39.4667,141.95,75.04,82,26,2.75
134,Qaanaaq,GL,2022-07-17 23:14:41,77.484,-69.3632,46.47,62,98,3.29
135,Cape Town,ZA,2022-07-17 23:12:55,-33.9258,18.4232,59.88,87,3,5.01
136,Saint-Georges,GD,2022-07-17 23:16:38,12.0564,-61.7485,79.88,83,34,18.07
137,Vanavara,RU,2022-07-17 23:16:38,60.34,102.2797,58.73,76,74,2.77
138,Deputatskiy,RU,2022-07-17 23:16:39,69.3,139.9,52.88,58,77,2.95
139,Tiksi,RU,2022-07-17 23:16:39,71.6872,128.8694,39.52,72,100,7.18
140,Alabaster,US,2022-07-17 23:16:19,33.2443,-86.8164,91.45,59,0,5.75
141,Nome,US,2022-07-17 23:16:40,64.5011,-165.4064,55.17,76,75,12.66
142,Basco,PH,2022-07-17 23:17:41,20.4487,121.9702,84.6,78,100,13.42
143,Chuy,UY,2022-07-17 23:17:42,-33.6971,-53.4616,44.17,83,0,7.29
144,Chernyshevskiy,RU,2022-07-17 23:17:42,63.0128,112.4714,56.32,81,100,4.09
145,Idlib,SY,2022-07-17 23:17:43,35.9306,36.6339,73.11,68,0,6.98
146,Touros,BR,2022-07-17 23:17:44,-5.1989,-35.4608,77.14,78,58,15.3
147,Cabo San Lucas,MX,2022-07-17 23:17:44,22.8909,-109.9124,92.61,42,0,4.61
148,Thompson,CA,2022-07-17 23:15:25,55.7435,-97.8558,78.96,47,75,9.22
149,Karratha,AU,2022-07-17 23:17:45,-20.7377,116.8463,63.9,50,1,5.59
150,Longyearbyen,SJ,2022-07-17 23:17:46,78.2186,15.6401,60.64,67,75,3.44
151,Grindavik,IS,2022-07-17 23:17:46,63.8424,-22.4338,49.95,100,100,8.05
152,Adrar,MR,2022-07-17 23:17:47,20.5022,-10.0711,98.62,11,60,9.06
153,Pa Sang,TH,2022-07-17 23:17:47,18.5262,98.9394,77.2,88,90,3.29
154,La Ronge,CA,2022-07-17 23:15:21,55.1001,-105.2842,79.05,29,75,13.8
155,Ribeira Grande,PT,2022-07-17 23:17:48,38.5167,-28.7,72.07,91,6,5.93
156,Dikson,RU,2022-07-17 23:17:49,73.5069,80.5464,43.99,79,17,8.39
157,Kloulklubed,PW,2022-07-17 23:17:49,7.0419,134.2556,79.3,71,87,5.88
158,Asfi,MA,2022-07-17 23:17:50,32.2994,-9.2372,69.6,89,0,11.74
159,Comodoro Rivadavia,AR,2022-07-17 23:17:44,-45.8667,-67.5,42.66,61,0,23.02
160,Katsuura,JP,2022-07-17 23:17:51,35.1333,140.3,80.19,81,100,13.15
161,Borken,DE,2022-07-17 23:17:51,51.85,6.8667,68.18,65,74,6.62
162,Talnakh,RU,2022-07-17 23:17:52,69.4865,88.3972,56.21,60,97,0.65
163,Jalu,LY,2022-07-17 23:17:52,29.0331,21.5482,81.95,42,0,15.79
164,Belmonte,BR,2022-07-17 23:17:53,-15.8631,-38.8828,72.34,88,22,9.53
165,Tottori,JP,2022-07-17 23:17:53,35.5,134.2333,78.87,78,75,4.61
166,Husavik,IS,2022-07-17 23:17:54,66.0449,-17.3389,46.33,91,99,4.41
167,Dongsheng,CN,2022-07-17 23:17:54,39.8161,109.9776,68.76,36,78,3.94
168,Carballo,ES,2022-07-17 23:17:55,43.213,-8.691,63.43,93,80,2.42
169,Baft,IR,2022-07-17 23:17:56,29.234,56.6057,72.25,13,2,4.23
170,Olivenza,ES,2022-07-17 23:17:56,38.6832,-7.103,74.61,45,37,7.07
171,Rawson,AR,2022-07-17 23:17:57,-43.3002,-65.1023,46.56,56,26,15.7
172,Freeport,US,2022-07-17 23:17:57,40.6576,-73.5832,81.99,72,20,13.8
173,Moyo,UG,2022-07-17 23:17:58,3.6609,31.7247,65.97,88,45,1.99
174,Sur,OM,2022-07-17 23:17:58,22.5667,59.5289,86.58,70,100,6.46
175,East London,ZA,2022-07-17 23:17:59,-33.0153,27.9116,67.69,32,0,7.83
176,Khasan,RU,2022-07-17 23:17:59,42.4308,130.6434,63.45,98,100,8.63
177,Barranca,PE,2022-07-17 23:17:59,-10.75,-77.7667,61.79,82,16,10.07
178,Kanbe,MM,2022-07-17 23:18:00,16.7053,96.0017,78.85,93,87,2.91
179,Kenai,US,2022-07-17 23:18:00,60.5544,-151.2583,55.15,97,100,13.8
180,Ankpa,NG,2022-07-17 23:18:01,7.3706,7.6253,71.01,87,100,4.38
181,Amapa,BR,2022-07-17 23:18:01,1.0,-52.0,74.1,95,93,3.13
182,Sainte-Rose,GP,2022-07-17 23:18:02,16.3324,-61.6979,82.44,74,20,9.22
183,Mayo,US,2022-07-17 23:18:03,38.8876,-76.5119,84.31,74,0,5.75
184,Saint-Joseph,RE,2022-07-17 23:18:03,-21.3667,55.6167,68.38,76,31,14.05
185,Kasongo,CD,2022-07-17 23:18:04,-4.45,26.6667,76.64,47,97,1.86
186,Vila,PT,2022-07-17 23:15:59,42.0304,-8.1588,63.7,70,20,4.16
187,Marquette,US,2022-07-17 23:19:05,46.5333,-87.6335,74.64,67,60,4.54
188,Mount Isa,AU,2022-07-17 23:16:49,-20.7333,139.5,64.17,42,1,6.91
189,High Level,CA,2022-07-17 23:15:39,58.5169,-117.136,80.71,39,75,4.61
190,Ornskoldsvik,SE,2022-07-17 23:19:06,63.2909,18.7153,54.55,82,100,4.61
191,Tecpan,GT,2022-07-17 23:19:06,14.7623,-90.9947,64.89,71,85,5.14
192,Lugo,ES,2022-07-17 23:19:07,43.0,-7.5,64.47,99,51,1.95
193,Lyubashivka,UA,2022-07-17 23:19:07,47.8372,30.2598,54.55,72,0,10.0
194,Quimperle,FR,2022-07-17 23:19:08,47.8667,-3.55,75.97,43,0,6.91
195,Puerto Escondido,MX,2022-07-17 23:19:08,15.85,-97.0667,86.83,58,75,5.75
196,Iralaya,HN,2022-07-17 23:19:09,15.0,-83.2333,81.7,80,60,11.43
197,Portobelo,PA,2022-07-17 23:19:09,9.55,-79.65,80.96,84,100,6.98
198,Maceio,BR,2022-07-17 23:16:08,-9.6658,-35.7353,76.44,78,40,4.61
199,Lerik,AZ,2022-07-17 23:19:10,38.7726,48.4128,56.12,36,0,1.57
200,Nuuk,GL,2022-07-17 23:19:11,64.1835,-51.7216,45.21,87,75,21.85
201,Quila,MX,2022-07-17 23:19:11,24.4228,-107.22,94.86,50,46,13.22
202,Hervey Bay,AU,2022-07-17 23:16:32,-25.2986,152.8535,64.02,87,54,5.99
203,Sauda,NO,2022-07-17 23:19:12,59.6506,6.3542,59.68,100,100,4.7
204,Kyshtovka,RU,2022-07-17 23:19:13,56.555,76.6271,51.24,95,5,7.76
205,Inzer,RU,2022-07-17 23:19:13,54.2167,57.5556,62.51,92,100,1.95
206,Brainerd,US,2022-07-17 23:16:48,46.358,-94.2008,88.05,51,20,10.36
207,Tecoanapa,MX,2022-07-17 23:19:14,16.5167,-98.75,83.28,71,100,4.88
208,Pangnirtung,CA,2022-07-17 23:19:15,66.1451,-65.7125,50.76,66,42,1.83
209,Honiara,SB,2022-07-17 23:14:36,-9.4333,159.95,85.69,61,18,10.36
210,Hofn,IS,2022-07-17 23:19:16,64.2539,-15.2082,53.53,76,21,4.29
211,Monrovia,LR,2022-07-17 23:19:16,6.3005,-10.7969,76.98,82,100,13.78
212,Lubao,PH,2022-07-17 23:19:17,14.9167,120.55,80.31,87,95,1.1
213,Wasilla,US,2022-07-17 23:16:01,61.5814,-149.4394,57.02,92,100,3.44
214,Elk City,US,2022-07-17 23:19:17,35.412,-99.4043,105.78,20,0,9.22
215,Savinka,RU,2022-07-17 23:19:18,50.0785,47.0994,73.51,51,35,7.58
216,Namatanai,PG,2022-07-17 23:19:18,-3.6667,152.4333,83.73,69,80,9.62
217,Mansfield,GB,2022-07-17 23:15:20,53.1333,-1.2,74.59,44,100,6.69
218,Lompoc,US,2022-07-17 23:19:19,34.6391,-120.4579,91.54,66,0,14.97
219,Hvolsvollur,IS,2022-07-17 23:19:20,63.7533,-20.2243,51.03,89,77,4.29
220,Ruidoso,US,2022-07-17 23:19:20,33.3317,-105.673,88.95,19,0,11.5
221,Bolu,TR,2022-07-17 23:19:21,40.6667,31.5833,56.88,93,12,2.53
222,Klaksvik,FO,2022-07-17 23:18:32,62.2266,-6.589,50.92,89,99,21.16
223,Pimenta Bueno,BR,2022-07-17 23:14:27,-11.6725,-61.1936,86.36,42,46,4.9
224,Grand-Lahou,CI,2022-07-17 23:19:22,5.1367,-5.0242,75.36,85,56,12.37
225,Healdsburg,US,2022-07-17 23:16:58,38.6105,-122.8692,104.31,35,0,13.8
226,Wyszkow,PL,2022-07-17 23:19:22,52.5928,21.4584,62.94,67,79,5.88
227,Ostashkov,RU,2022-07-17 23:19:23,57.1467,33.1075,52.16,85,75,3.74
228,Singkawang,ID,2022-07-17 23:19:23,0.9,109.0,75.72,79,100,3.02
229,Nikolskoye,RU,2022-07-17 23:19:24,59.7035,30.7861,53.8,97,99,5.21
230,Norman Wells,CA,2022-07-17 23:19:25,65.282,-126.8329,77.04,31,75,2.3
231,Bengkulu,ID,2022-07-17 23:19:25,-3.8004,102.2655,75.07,87,41,4.52
232,Fort Smith,US,2022-07-17 23:16:43,35.3859,-94.3986,105.84,30,20,10.36
233,Neuenburg,CH,2022-07-17 23:20:26,46.9918,6.931,67.5,68,26,2.3
234,Portland,US,2022-07-17 23:18:45,45.5234,-122.6762,78.91,45,40,11.5
235,Kangaatsiaq,GL,2022-07-17 23:20:27,68.3065,-53.4641,41.22,91,79,6.04
236,Ambalavao,MG,2022-07-17 23:20:27,-21.8333,46.9333,49.44,94,19,5.44
237,Jeremie,HT,2022-07-17 23:20:28,18.65,-74.1167,83.82,72,15,4.63
238,Nemuro,JP,2022-07-17 23:20:28,43.3236,145.575,63.46,99,100,10.31
239,Minab,IR,2022-07-17 23:20:29,27.1467,57.0801,88.12,74,79,0.0
240,Encruzilhada Do Sul,BR,2022-07-17 23:17:43,-30.5439,-52.5219,41.34,95,3,3.2
241,Ilulissat,GL,2022-07-17 23:20:30,69.2167,-51.1,51.82,54,26,5.75
242,Ancud,CL,2022-07-17 23:18:20,-41.8697,-73.8203,41.23,76,43,10.31
243,Te Anau,NZ,2022-07-17 23:20:30,-45.4167,167.7167,52.02,81,100,13.96
244,Anadyr,RU,2022-07-17 23:20:31,64.75,177.4833,45.1,42,40,29.08
245,Strangnas,SE,2022-07-17 23:20:31,59.3774,17.0312,62.58,64,100,4.68
246,Bastia,FR,2022-07-17 23:20:32,42.6667,9.3333,78.3,78,0,4.61
247,Lanigan,CA,2022-07-17 23:20:32,51.8501,-105.0344,85.89,46,25,7.23
248,Hithadhoo,MV,2022-07-17 23:20:33,-0.6,73.0833,79.07,78,100,20.94
249,Biak,ID,2022-07-17 23:20:33,-0.9131,122.8766,71.62,95,100,2.44
250,Eyl,SO,2022-07-17 23:20:34,7.9803,49.8164,77.63,67,53,30.13
251,Beloha,MG,2022-07-17 23:20:35,-25.1667,45.05,61.45,82,0,8.43
252,Saint-Paul,RE,2022-07-17 23:20:36,-21.0096,55.2707,70.36,72,27,4.59
253,Bathsheba,BB,2022-07-17 23:20:36,13.2167,-59.5167,81.21,87,20,18.41
254,Puerto Penasco,MX,2022-07-17 23:20:37,31.3167,-113.5333,89.91,68,73,11.99
255,Lagos,NG,2022-07-17 23:20:37,6.5833,3.75,74.79,86,97,4.94
256,Gimli,CA,2022-07-17 23:20:38,50.6336,-96.9907,89.62,62,1,11.5
257,Ostersund,SE,2022-07-17 23:20:38,63.1792,14.6357,50.61,100,75,13.0
258,Mahebourg,MU,2022-07-17 23:20:39,-20.4081,57.7,70.09,73,75,12.66
259,Catemaco,MX,2022-07-17 23:20:39,18.4167,-95.1167,79.39,76,100,2.26
260,Eureka,US,2022-07-17 23:20:40,40.8021,-124.1637,80.67,72,9,5.99
261,Mulege,MX,2022-07-17 23:20:41,26.8833,-111.9833,93.56,43,6,11.05
262,Zhigansk,RU,2022-07-17 23:20:41,66.7697,123.3711,57.29,70,89,11.12
263,Luderitz,NA,2022-07-17 23:20:42,-26.6481,15.1594,62.01,57,1,6.04
264,Batouri,CM,2022-07-17 23:20:42,4.4333,14.3667,68.5,98,100,3.09
265,Tandalti,SD,2022-07-17 23:20:43,13.0167,31.8667,81.82,62,65,8.3
266,Quatre Cocos,MU,2022-07-17 23:20:43,-20.2078,57.7625,69.91,64,86,19.6
267,Novyy Urgal,RU,2022-07-17 23:20:44,51.0736,132.5642,66.65,85,94,1.74
268,Poum,NC,2022-07-17 23:20:45,-20.2333,164.0167,75.7,71,31,18.66
269,Birin,NP,2022-07-17 23:20:45,26.8865,88.0718,65.28,94,89,1.52
270,Taoudenni,ML,2022-07-17 23:20:46,22.6783,-3.9836,101.41,8,46,17.2
271,Sapa,PH,2022-07-17 23:20:46,5.1544,120.3241,80.22,80,100,1.3
272,Zyryanka,RU,2022-07-17 23:20:47,65.75,150.85,60.44,45,72,1.3
273,Bhadrachalam,IN,2022-07-17 23:20:47,17.6667,80.8833,75.83,96,100,5.32
274,Penzance,GB,2022-07-17 23:17:38,50.1186,-5.5371,65.08,68,100,12.41
275,Namibe,AO,2022-07-17 23:20:48,-15.1961,12.1522,64.81,80,5,1.9
276,Fare,PF,2022-07-17 23:20:48,-16.7,-151.0167,76.86,69,72,14.99
277,Cervo,ES,2022-07-17 23:21:49,43.6702,-7.4101,63.97,78,73,5.68
278,Puerto Del Rosario,ES,2022-07-17 23:21:50,28.5004,-13.8627,71.35,78,0,17.27
279,Svetlaya,RU,2022-07-17 23:21:50,46.5389,138.3297,61.09,88,100,1.61
280,Marsh Harbour,BS,2022-07-17 23:21:51,26.5412,-77.0636,82.9,76,83,13.98
281,Kannangad,IN,2022-07-17 23:21:51,12.3081,75.1063,78.24,85,100,9.48
282,Piacabucu,BR,2022-07-17 23:21:52,-10.4056,-36.4344,72.93,76,29,6.58
283,Samarai,PG,2022-07-17 23:21:52,-10.6167,150.6667,80.55,80,40,6.15
284,Strezhevoy,RU,2022-07-17 23:21:53,60.7333,77.5889,54.61,83,96,6.93
285,Lukulu,ZM,2022-07-17 23:21:53,-14.3707,23.242,53.46,47,3,7.7
286,San Quintin,MX,2022-07-17 23:21:54,30.4833,-115.95,73.62,67,9,9.73
287,Buenaventura,CO,2022-07-17 23:20:02,3.8801,-77.0312,76.46,94,93,3.02
288,Narsaq,GL,2022-07-17 23:21:54,60.9167,-46.05,53.82,78,79,3.71
289,Pervomayskiy,RU,2022-07-17 23:21:55,53.2485,40.2871,58.96,72,98,7.05
290,Koulikoro,ML,2022-07-17 23:21:56,14.0,-7.75,75.47,80,100,6.42
291,Petropavlovsk-Kamchatskiy,RU,2022-07-17 23:21:56,53.0452,158.6483,72.19,64,0,4.47
292,Vila Velha,BR,2022-07-17 23:19:05,-20.3297,-40.2925,75.15,87,0,13.0
293,Imbituba,BR,2022-07-17 23:21:57,-28.24,-48.6703,58.08,85,100,1.99
294,Quilmana,PE,2022-07-17 23:21:57,-12.95,-76.3833,63.25,80,19,4.63
295,Bambous Virieux,MU,2022-07-17 23:19:44,-20.3428,57.7575,70.05,73,75,12.66
296,Tiruchchendur,IN,2022-07-17 23:21:58,8.4833,78.1167,82.35,63,100,9.86
297,Along,IN,2022-07-17 23:21:59,28.1667,94.7667,74.46,98,72,1.28
298,Cam Ranh,VN,2022-07-17 23:21:59,11.9214,109.1591,78.76,83,20,1.14
299,Kaeo,NZ,2022-07-17 23:22:00,-35.1,173.7833,58.32,85,100,8.55
300,Salalah,OM,2022-07-17 23:22:00,17.0151,54.0924,77.09,94,100,6.91
301,Vardo,NO,2022-07-17 23:22:01,70.3705,31.1107,51.78,93,75,5.75
302,Marzuq,YE,2022-07-17 23:22:01,14.4,46.4667,81.32,18,78,3.78
303,Kalavad,IN,2022-07-17 23:22:02,22.2167,70.3833,78.1,90,82,11.83
304,Noumea,NC,2022-07-17 23:19:41,-22.2763,166.4572,75.18,99,53,10.49
305,Aklavik,CA,2022-07-17 23:22:03,68.2191,-135.0107,74.07,37,97,10.98
306,Hailun,CN,2022-07-17 23:22:03,47.45,126.9333,65.3,93,86,2.71
307,Palu,ID,2022-07-17 23:22:04,-0.8917,119.8707,73.85,93,100,3.85
308,Pacifica,US,2022-07-17 23:22:04,37.6138,-122.4869,86.74,78,20,19.57
309,Kamina,CD,2022-07-17 23:22:05,-8.7386,24.9906,60.58,46,69,4.29
310,Lethem,GY,2022-07-17 23:22:06,3.3803,-59.7968,81.14,76,91,3.11
311,Hongjiang,CN,2022-07-17 23:22:06,27.11,109.9956,77.31,98,100,1.43
312,Rafai,CF,2022-07-17 23:22:07,4.95,23.9167,68.14,99,71,2.19
313,Ust-Nera,RU,2022-07-17 23:22:07,64.5667,143.2,67.95,67,93,3.89
314,Kieta,PG,2022-07-17 23:22:08,-6.2167,155.6333,82.89,75,47,6.6
315,Margate,GB,2022-07-17 23:22:08,51.3813,1.3862,68.31,81,32,1.01
316,Mogadishu,SO,2022-07-17 23:20:06,2.0371,45.3438,75.52,85,48,20.45
317,Ayr,GB,2022-07-17 23:22:09,55.4627,-4.6339,63.32,82,0,3.44
318,Juneau,US,2022-07-17 23:20:24,58.3019,-134.4197,58.21,96,100,23.02
319,Port Lincoln,AU,2022-07-17 23:22:10,-34.7333,135.8667,53.01,70,100,5.19
320,Nara,JP,2022-07-17 23:20:08,34.6851,135.8049,82.96,55,100,5.91
321,North Bend,US,2022-07-17 23:22:11,43.4065,-124.2243,76.24,77,0,23.02
322,Hambantota,LK,2022-07-17 23:22:11,6.1241,81.1185,79.86,78,100,15.99
323,Rolla,US,2022-07-17 23:22:40,37.9514,-91.7713,84.27,70,20,8.05
324,Auki,SB,2022-07-17 23:23:12,-8.7676,160.7034,83.82,66,63,5.59
325,Meulaboh,ID,2022-07-17 23:23:12,4.1363,96.1285,76.1,91,69,3.33
326,Port Hardy,CA,2022-07-17 23:23:13,50.6996,-127.4199,62.78,72,40,10.36
327,Aswan,EG,2022-07-17 23:23:13,24.0934,32.907,86.56,21,92,10.45
328,Madang,PG,2022-07-17 23:23:14,-5.2246,145.7966,79.77,84,73,4.94
329,Novyy Urengoy,RU,2022-07-17 23:23:14,66.0833,76.6333,57.24,73,88,6.06
330,Urubicha,BO,2022-07-17 23:23:15,-15.3833,-62.95,70.18,61,46,2.04
331,Tuatapere,NZ,2022-07-17 23:23:15,-46.1333,167.6833,53.1,84,92,14.99
332,Fonte Boa,BR,2022-07-17 23:23:16,-2.4959,-66.2662,79.68,77,90,2.86
333,Bagdarin,RU,2022-07-17 23:23:17,54.4333,113.6,59.18,91,71,1.14
334,Kaitangata,NZ,2022-07-17 23:23:17,-46.2817,169.8464,55.69,60,84,7.45
335,Buraydah,SA,2022-07-17 23:23:18,26.326,43.975,86.45,12,8,8.66
336,Batagay-Alyta,RU,2022-07-17 23:23:19,67.8006,130.4114,55.58,66,100,5.28
337,Mbandaka,CD,2022-07-17 23:23:20,0.0487,18.2603,70.47,93,96,3.04
338,Viransehir,TR,2022-07-17 23:23:20,37.2353,39.7631,87.44,20,0,6.17
339,Yumen,CN,2022-07-17 23:18:30,40.2833,97.2,73.26,34,100,17.31
340,Licheng,CN,2022-07-17 23:23:21,23.2955,113.8284,81.43,92,100,5.32
341,Alofi,NU,2022-07-17 23:23:22,-19.0595,-169.9187,80.49,69,2,17.27
342,Coahuayana,MX,2022-07-17 23:23:22,18.7333,-103.6833,81.81,85,88,4.68
343,Abu Kamal,SY,2022-07-17 23:23:23,34.4506,40.9171,88.86,24,0,10.09
344,Agadir,MA,2022-07-17 23:23:23,30.4202,-9.5982,72.05,79,4,4.97
345,Kandi,BJ,2022-07-17 23:23:24,11.1342,2.9386,72.63,95,75,3.58
346,Nova Olinda Do Norte,BR,2022-07-17 23:23:24,-3.8881,-59.0942,82.15,61,96,1.99
347,Goderich,CA,2022-07-17 23:23:25,43.7501,-81.7165,77.32,65,100,3.44
348,Dingle,PH,2022-07-17 23:23:25,10.9995,122.6711,75.6,92,100,1.41
349,Molteno,ZA,2022-07-17 23:23:26,-31.3968,26.3625,44.91,48,1,7.99
350,Westport,US,2022-07-17 23:21:02,41.1415,-73.3579,81.3,83,0,9.22
351,Sola,VU,2022-07-17 23:20:57,-13.8833,167.55,83.07,79,75,3.44
352,Camocim,BR,2022-07-17 23:23:27,-2.9022,-40.8411,80.85,73,31,16.82
353,Cidreira,BR,2022-07-17 23:23:27,-30.1811,-50.2056,52.0,75,13,7.85
354,Inhambane,MZ,2022-07-17 23:23:28,-23.865,35.3833,66.96,90,8,6.08
355,Lazaro Cardenas,MX,2022-07-17 23:23:28,17.9583,-102.2,85.39,68,77,7.45
356,Labuan,MY,2022-07-17 23:23:28,5.2767,115.2417,77.36,100,20,0.0
357,Asau,RO,2022-07-17 23:23:29,46.4333,26.4,56.32,68,32,3.67
358,Apollonia,GR,2022-07-17 23:23:30,36.9716,24.7231,72.99,72,0,23.29
359,Sokolo,ML,2022-07-17 23:21:10,14.7328,-6.1219,85.53,53,77,10.67
360,Punta Alta,AR,2022-07-17 23:23:31,-38.8759,-62.0736,50.16,56,94,13.49
361,Ca Mau,VN,2022-07-17 23:23:31,9.1769,105.15,76.73,91,52,4.59
362,Eydhafushi,MV,2022-07-17 23:23:32,5.1033,73.0708,80.2,82,100,17.27
363,Kavaratti,IN,2022-07-17 23:23:32,10.5669,72.642,81.7,76,100,19.73
364,Verkhoyansk,RU,2022-07-17 23:23:33,67.5447,133.385,59.81,60,100,4.12
365,Vage,NO,2022-07-17 23:23:33,60.0469,5.5178,58.93,91,100,7.83
366,Sistranda,NO,2022-07-17 23:23:34,63.7256,8.834,53.56,81,91,19.17
367,Leon,MX,2022-07-17 23:19:31,21.1167,-101.6667,71.65,55,85,5.75
368,Rocha,UY,2022-07-17 23:24:35,-34.4833,-54.3333,42.64,77,0,7.4
369,Merauke,ID,2022-07-17 23:24:35,-8.4667,140.3333,77.85,83,100,11.83
370,Tuktoyaktuk,CA,2022-07-17 23:24:36,69.4541,-133.0374,68.0,56,75,11.5
371,Sorochinsk,RU,2022-07-17 23:24:36,52.4338,53.1583,66.34,82,59,4.88
372,Palmer,US,2022-07-17 23:24:37,42.1584,-72.3287,82.0,64,75,9.22
373,Makurdi,NG,2022-07-17 23:24:37,7.7411,8.5121,73.33,91,100,4.45
374,Kerema,PG,2022-07-17 23:24:38,-7.9631,145.7785,79.18,79,83,6.08
375,Iznoski,RU,2022-07-17 23:24:38,54.9881,35.3108,52.21,88,100,3.91
376,Diffa,NE,2022-07-17 23:24:39,13.3154,12.6113,75.99,75,60,10.98
377,Paamiut,GL,2022-07-17 23:24:39,61.994,-49.6678,43.25,86,100,3.6
378,Aiton,RO,2022-07-17 23:24:40,46.6833,23.7333,53.64,66,0,3.44
379,Suvorovo,BG,2022-07-17 23:24:40,43.3333,27.6,69.35,59,79,6.42
380,Blatec,MK,2022-07-17 23:24:41,41.8378,22.5781,61.16,49,0,4.29
381,Carutapera,BR,2022-07-17 23:24:41,-1.195,-46.02,76.19,90,53,7.25
382,Qaqortoq,GL,2022-07-17 23:24:41,60.7167,-46.0333,44.22,84,75,5.08
383,Nikolayevka,RU,2022-07-17 23:24:42,53.1257,47.2041,63.3,79,0,3.71
384,Zambezi,ZM,2022-07-17 23:24:43,-13.5432,23.1047,52.9,45,2,7.09
385,Isangel,VU,2022-07-17 23:24:43,-19.55,169.2667,80.71,78,75,4.61
386,Cayenne,GF,2022-07-17 23:24:44,4.9333,-52.3333,83.08,1,0,3.44
387,Princeville,CA,2022-07-17 23:23:20,45.7668,-61.2985,74.05,61,0,4.61
388,Oga,IT,2022-07-17 23:24:45,46.4631,10.347,63.28,79,0,1.83
389,Dingzhou,CN,2022-07-17 23:24:45,38.5131,114.9956,78.91,49,76,5.93
390,Caravelas,BR,2022-07-17 23:24:46,-17.7125,-39.2481,71.92,85,5,6.15
391,Zhangzhou,CN,2022-07-17 23:24:46,24.5133,117.6556,85.93,89,100,0.94
392,Mazatlan,MX,2022-07-17 23:21:05,23.2167,-106.4167,87.76,80,100,8.05
393,Cockburn Town,TC,2022-07-17 23:24:47,21.4612,-71.1419,84.16,70,40,18.41
394,Yar-Sale,RU,2022-07-17 23:24:47,66.8333,70.8333,56.89,69,68,7.99
395,Videira,BR,2022-07-17 23:23:56,-27.0083,-51.1517,44.69,93,75,1.54
396,Venado Tuerto,AR,2022-07-17 23:24:48,-33.7456,-61.9688,48.76,41,79,8.23
397,Shimanovsk,RU,2022-07-17 23:24:49,52.0,127.7,65.95,97,98,2.08
398,Cochrane,CA,2022-07-17 23:24:49,51.1834,-114.4687,76.91,49,20,5.75
399,Belaya Gora,RU,2022-07-17 23:24:50,68.5333,146.4167,55.65,46,75,3.85
400,Washougal,US,2022-07-17 23:22:08,45.5826,-122.3534,78.76,46,75,10.36
401,Lavrentiya,RU,2022-07-17 23:24:50,65.5833,-171.0,48.72,94,100,10.69
402,Sandakan,MY,2022-07-17 23:24:51,5.8402,118.1179,76.68,94,20,0.0
403,Kumluca,TR,2022-07-17 23:24:51,36.3703,30.2869,83.82,43,0,9.6
404,Tigil,RU,2022-07-17 23:24:52,57.8,158.6667,67.57,66,19,18.66
405,Damghan,IR,2022-07-17 23:24:53,36.1683,54.348,78.21,35,0,1.81
406,Mikuni,JP,2022-07-17 23:24:53,36.2171,136.1519,78.71,80,100,8.03
407,Watsa,CD,2022-07-17 23:24:54,3.0372,29.5355,64.35,98,92,1.43
408,Kununurra,AU,2022-07-17 23:24:55,-15.7667,128.7333,58.98,51,4,3.44
409,Lata,PT,2022-07-17 23:24:55,40.1629,-8.3327,63.79,88,29,0.09
410,Marsa Matruh,EG,2022-07-17 23:24:56,31.3525,27.2453,77.2,73,0,6.91
411,Hobyo,SO,2022-07-17 23:24:56,5.3505,48.5268,75.92,82,92,29.17
412,Manzhouli,CN,2022-07-17 23:24:57,49.6,117.4333,63.39,85,100,7.16
413,Skjervoy,NO,2022-07-17 23:24:57,70.0311,20.9714,48.2,83,100,4.23
414,Broome,US,2022-07-17 23:24:58,42.2506,-75.833,81.37,61,0,5.99
415,Iskilip,TR,2022-07-17 23:25:58,40.7353,34.4739,62.64,71,0,6.87
416,Paso De Los Toros,UY,2022-07-17 23:25:59,-32.8167,-56.5167,43.16,85,1,8.21
417,Esil,KZ,2022-07-17 23:25:59,51.9556,66.4042,66.13,86,84,6.96
418,Aden,YE,2022-07-17 23:26:00,12.7794,45.0367,82.83,79,66,9.64
419,Mizdah,LY,2022-07-17 23:26:00,31.4451,12.9801,72.27,57,0,11.03
420,Evensk,RU,2022-07-17 23:26:01,61.95,159.2333,59.2,80,100,2.08
421,Narrabri,AU,2022-07-17 23:26:01,-30.3167,149.7833,55.53,74,0,1.01
422,Careiro Da Varzea,BR,2022-07-17 23:26:02,-3.2003,-59.8119,86.63,62,99,2.51
423,Harbour Breton,CA,2022-07-17 23:26:03,47.4833,-55.7983,60.03,93,86,7.56
424,Lorengau,PG,2022-07-17 23:26:03,-2.0226,147.2712,83.03,78,64,10.85
425,Port Blair,IN,2022-07-17 23:26:04,11.6667,92.75,81.01,83,100,8.95
426,Camana,PE,2022-07-17 23:26:04,-16.6228,-72.7111,60.87,80,64,8.25
427,Sangar,RU,2022-07-17 23:26:05,63.9242,127.4739,69.44,91,100,7.11
428,Yongan,CN,2022-07-17 23:26:05,39.6957,113.6871,66.78,51,68,2.77
429,Codrington,AU,2022-07-17 23:26:05,-38.2667,141.9667,48.2,70,99,15.03
430,Sobolevo,RU,2022-07-17 23:26:06,54.4299,31.8996,50.95,92,14,6.62
431,Lomovka,RU,2022-07-17 23:26:06,53.9194,58.3672,61.75,86,100,2.26
432,Shenandoah,US,2022-07-17 23:26:07,30.4013,-91.0009,88.0,52,68,7.02
433,Peleduy,RU,2022-07-17 23:26:07,59.6289,112.7406,61.41,70,100,3.29
434,Roebourne,AU,2022-07-17 23:26:08,-20.7833,117.1333,64.0,49,1,5.79
435,Svetlyy,RU,2022-07-17 23:26:08,54.675,20.1347,53.96,84,63,9.53
436,Muncar,ID,2022-07-17 23:26:09,-8.4333,114.3333,75.7,89,58,6.71
437,Martapura,ID,2022-07-17 23:26:09,-3.4167,114.85,73.49,100,20,3.44
438,Troyes,FR,2022-07-17 23:26:10,48.3333,4.0833,68.77,49,0,0.0
439,Lewiston,US,2022-07-17 23:26:10,44.1003,-70.2148,82.74,59,0,6.91
440,Ugoofaaru,MV,2022-07-17 23:26:10,5.6667,73.0,81.01,76,100,19.69
441,Geraldton,AU,2022-07-17 23:26:11,-28.7667,114.6,52.21,100,9,9.22
442,Dargaville,NZ,2022-07-17 23:26:11,-35.9333,173.8833,54.14,72,92,5.35
443,Kahului,US,2022-07-17 23:26:12,20.8947,-156.47,87.82,63,20,28.77
444,Chichimila,MX,2022-07-17 23:26:12,20.6167,-88.2167,92.46,39,60,5.97
445,Dembi Dolo,ET,2022-07-17 23:26:13,8.5333,34.8,57.92,89,100,3.44
446,Sinnamary,GF,2022-07-17 23:26:13,5.3833,-52.95,78.44,81,85,6.89
447,Myitkyina,MM,2022-07-17 23:26:14,25.3833,97.4,76.05,97,100,1.07
448,Xai-Xai,MZ,2022-07-17 23:26:14,-25.0519,33.6442,65.84,89,10,5.21
449,San Cristobal,VE,2022-07-17 23:26:15,7.7669,-72.225,77.18,88,58,3.85
450,Panzhihua,CN,2022-07-17 23:26:15,26.5851,101.7128,73.85,91,100,2.62
451,Port Macquarie,AU,2022-07-17 23:26:16,-31.4333,152.9167,62.89,59,1,6.85
452,Tiarei,PF,2022-07-17 23:23:12,-17.5333,-149.3333,82.42,72,37,13.53
453,Hastings,GB,2022-07-17 23:26:16,50.8552,0.5729,68.79,68,60,8.68
454,Champerico,GT,2022-07-17 23:26:17,14.3,-91.9167,82.94,74,60,5.55
455,Halifax,CA,2022-07-17 23:24:00,44.6453,-63.5724,73.29,69,45,9.95
456,Trapani,IT,2022-07-17 23:26:18,37.8333,12.6667,82.27,68,0,4.61
457,Sorland,NO,2022-07-17 23:26:18,67.667,12.6934,51.66,89,98,22.24
458,Elko,US,2022-07-17 23:26:19,41.0002,-115.5012,89.62,43,76,9.13
459,Berlevag,NO,2022-07-17 23:26:19,70.8578,29.0864,51.8,93,100,6.91
460,Dasoguz,TM,2022-07-17 23:26:20,41.8363,59.9666,80.55,36,0,9.22
461,Irbil,IQ,2022-07-17 23:26:20,36.1926,44.0106,90.5,18,0,1.86
462,Sfantu Gheorghe,RO,2022-07-17 23:26:21,45.8667,25.7833,54.27,60,60,1.36
463,Goba,ET,2022-07-17 23:27:21,7.0167,39.9833,50.47,92,96,4.56
464,Gao,ML,2022-07-17 23:27:22,16.6362,1.637,92.82,37,45,12.59
465,Guerrero Negro,MX,2022-07-17 23:23:54,27.9769,-114.0611,77.49,55,1,15.12
466,Sigmaringen,DE,2022-07-17 23:27:23,48.0833,9.2167,61.68,66,11,3.44
467,Mariel,CU,2022-07-17 23:27:23,22.9875,-82.7536,91.54,63,95,3.04
468,San Lawrenz,MT,2022-07-17 23:27:24,36.0553,14.204,76.86,87,0,3.58
469,Ola,RU,2022-07-17 23:27:24,59.5833,151.2833,64.15,93,100,4.65
470,Zaranj,AF,2022-07-17 23:27:25,30.9667,61.8833,90.75,10,1,15.97
471,Alta Floresta,BR,2022-07-17 23:27:25,-9.8756,-56.0861,79.52,32,2,4.76
472,Rovaniemi,FI,2022-07-17 23:27:26,66.5,25.7167,54.81,94,0,6.91
473,Soc Trang,VN,2022-07-17 23:27:26,9.6033,105.98,76.57,93,95,5.17
474,Manokwari,ID,2022-07-17 23:27:26,-0.8667,134.0833,77.45,78,100,1.45
475,Kamenka,RU,2022-07-17 23:27:27,51.3223,42.7678,64.4,90,62,4.34
476,Conde,BR,2022-07-17 23:27:27,-7.2597,-34.9075,72.86,94,20,5.75
477,Kavieng,PG,2022-07-17 23:27:28,-2.5744,150.7967,83.37,77,60,13.6
478,Chor,PK,2022-07-17 23:27:28,25.5167,69.7667,83.43,80,19,11.34
479,Bloomsburg,US,2022-07-17 23:27:29,41.0037,-76.4549,80.6,75,100,2.13
480,Praia Da Vitoria,PT,2022-07-17 23:24:13,38.7333,-27.0667,71.85,94,75,9.46
481,Kudahuvadhoo,MV,2022-07-17 23:27:29,2.6708,72.8944,76.28,94,100,23.24
482,Young,UY,2022-07-17 23:27:30,-32.6833,-57.6333,42.78,84,4,8.08
483,Yenagoa,NG,2022-07-17 23:27:30,4.9247,6.2642,72.57,89,72,4.14
484,Spornoye,RU,2022-07-17 23:27:31,50.8448,37.2913,54.14,92,31,4.61
485,Halden,NO,2022-07-17 23:27:31,59.1226,11.3871,59.43,87,93,6.69
486,Cap Malheureux,MU,2022-07-17 23:27:32,-19.9842,57.6142,69.48,71,65,7.0
487,Saldanha,ZA,2022-07-17 23:27:32,-33.0117,17.9442,48.25,92,0,8.41
488,Broken Hill,AU,2022-07-17 23:27:33,-31.95,141.4333,45.43,68,3,6.53
489,Ikauna,IN,2022-07-17 23:27:33,27.55,81.9667,89.38,56,35,12.77
490,Innisfail,AU,2022-07-17 23:27:34,-17.5333,146.0333,68.0,84,100,6.31
491,Taraza,CO,2022-07-17 23:27:34,7.5836,-75.4007,79.39,89,53,2.3
492,Shunyi,CN,2022-07-17 23:27:35,40.125,116.6453,82.35,61,0,6.71
493,Shitkino,RU,2022-07-17 23:27:35,56.3703,98.3543,56.08,92,100,4.07
494,Shimoda,JP,2022-07-17 23:27:36,34.6667,138.95,80.96,80,89,14.0
495,Olga,RU,2022-07-17 23:27:36,43.7444,135.2892,66.56,76,100,2.01
496,Kalabo,ZM,2022-07-17 23:27:37,-14.97,22.6814,51.85,50,1,6.62
497,Buala,SB,2022-07-17 23:27:37,-8.145,159.5921,83.68,73,34,11.52
498,Forbes,AU,2022-07-17 23:27:38,-33.3833,148.0167,45.91,88,29,8.41
499,Sept-Iles,CA,2022-07-17 23:27:02,50.2001,-66.3821,72.12,55,75,3.44
500,Khorol,UA,2022-07-17 23:27:39,49.7837,33.2783,50.56,78,2,7.65
501,Russell,US,2022-07-17 23:27:39,32.3502,-85.1999,90.97,48,0,0.0
502,Lonar,IN,2022-07-17 23:27:40,19.9833,76.5333,72.05,90,100,17.83
503,College,US,2022-07-17 23:27:40,64.8569,-147.8028,67.98,49,75,9.22
504,Pyshchug,RU,2022-07-17 23:27:41,58.8873,45.7134,57.04,79,100,2.64
505,Bom Jesus,BR,2022-07-17 23:27:41,-9.0744,-44.3586,74.66,31,13,5.28
506,Birnin Kebbi,NG,2022-07-17 23:27:42,12.4539,4.1975,78.93,76,99,9.35
507,Chernaya Kholunitsa,RU,2022-07-17 23:27:42,58.8511,51.7154,57.09,72,1,4.88
508,Los Llanos De Aridane,ES,2022-07-17 23:27:43,28.6585,-17.9182,67.75,92,0,17.27
509,Arlit,NE,2022-07-17 23:27:43,18.7369,7.3853,92.53,32,61,13.09
510,Ostroh,UA,2022-07-17 23:28:44,50.3294,26.5143,49.64,89,17,8.19
511,Kendari,ID,2022-07-17 23:28:44,-3.945,122.4989,73.9,95,100,2.15
512,Dunedin,NZ,2022-07-17 23:28:45,-45.8742,170.5036,56.98,61,100,11.77
513,North Platte,US,2022-07-17 23:28:45,41.1239,-100.7654,93.09,36,0,12.66
514,Bonfim,BR,2022-07-17 23:28:46,3.0833,-59.95,82.09,72,72,3.29
515,Apostolove,UA,2022-07-17 23:28:47,47.66,33.7137,56.35,64,1,8.37
516,Ostrovnoy,RU,2022-07-17 23:28:47,68.0531,39.5131,55.18,76,79,9.69
517,Kichera,RU,2022-07-17 23:28:48,55.9375,110.0997,61.09,70,98,2.84
518,Santa Isabel Do Rio Negro,BR,2022-07-17 23:28:48,-0.4139,-65.0192,79.99,75,52,3.13
519,Ucluelet,CA,2022-07-17 23:28:49,48.9329,-125.5528,68.31,77,36,1.99
520,Parkes,AU,2022-07-17 23:28:50,-33.1333,148.1833,44.35,83,60,8.86
521,Vachi,RU,2022-07-17 23:28:50,42.072,47.2151,59.36,70,1,6.6
522,Manjacaze,MZ,2022-07-17 23:28:51,-24.7117,33.8828,62.51,95,1,3.98
523,Mindelo,CV,2022-07-17 23:28:52,16.8901,-24.9804,76.55,69,20,8.05
524,Aktau,KZ,2022-07-17 23:28:52,43.65,51.2,73.98,46,0,6.04
525,Oistins,BB,2022-07-17 23:25:19,13.0667,-59.5333,80.69,78,20,18.41
526,Coquimbo,CL,2022-07-17 23:28:53,-29.9533,-71.3436,55.13,76,0,4.61
527,Ganzhou,CN,2022-07-17 23:28:53,28.8184,115.4327,81.01,84,100,0.56
528,Otradnoye,RU,2022-07-17 23:28:54,59.7775,30.8181,53.96,97,100,5.35
529,Maldonado,UY,2022-07-17 23:28:26,-34.6667,-54.9167,49.23,74,0,8.93
530,Bandundu,CD,2022-07-17 23:28:55,-3.3167,17.3667,82.44,45,92,2.55
531,Umm Kaddadah,SD,2022-07-17 23:28:55,13.6017,26.6876,86.67,46,61,13.29
532,Dandong,CN,2022-07-17 23:28:56,40.1292,124.3947,71.22,94,74,2.51
533,Mukhtolovo,RU,2022-07-17 23:28:56,55.4644,43.1953,58.01,96,97,3.31
534,Abu Dhabi,AE,2022-07-17 23:26:32,24.4667,54.3667,95.11,63,0,2.3
535,Dauriya,RU,2022-07-17 23:28:57,49.9333,116.8667,64.15,83,100,7.63
536,Umuarama,BR,2022-07-17 23:28:58,-23.7664,-53.325,57.99,64,100,2.59
537,Yertsevo,RU,2022-07-17 23:28:58,60.7966,40.086,49.12,90,80,2.71
538,Idil,TR,2022-07-17 23:28:58,37.3411,41.8895,84.18,18,0,2.71
539,Kazanskaya,RU,2022-07-17 23:28:59,45.4106,40.4361,72.54,46,94,5.35
540,Samfya,ZM,2022-07-17 23:28:59,-11.3649,29.5565,55.98,65,14,8.16
541,Emmett,US,2022-07-17 23:29:00,43.8735,-116.4993,104.56,15,48,3.0
542,Havre-Saint-Pierre,CA,2022-07-17 23:29:00,50.2334,-63.5986,61.16,82,0,12.66
543,Dwarka,IN,2022-07-17 23:29:01,22.2394,68.9678,81.61,81,72,17.07
544,Matamoros,MX,2022-07-17 23:29:01,25.5333,-103.25,95.11,17,0,4.61
545,Gizo,SB,2022-07-17 23:29:02,-8.103,156.8419,82.96,71,42,5.53
546,Kousseri,CM,2022-07-17 23:29:03,12.0769,15.0306,74.35,83,100,7.72
547,Nicolas Bravo,MX,2022-07-17 23:29:03,18.45,-88.9167,88.48,50,59,7.14
548,Kalmar,SE,2022-07-17 23:29:04,56.6616,16.3616,63.14,78,98,5.01
549,Bani,DO,2022-07-17 23:29:04,18.2833,-70.3333,87.24,79,48,13.98
550,Tazmalt,DZ,2022-07-17 23:29:05,36.3868,4.3989,80.15,33,0,3.91
551,Vostok,RU,2022-07-17 23:29:06,46.4856,135.8833,60.62,90,100,1.97
552,Amahai,ID,2022-07-17 23:29:06,-3.3333,128.9167,76.96,90,98,5.99
553,Vestmanna,FO,2022-07-17 23:29:07,62.1564,-7.1664,49.12,93,100,13.8
554,Hibbing,US,2022-07-17 23:30:07,47.4272,-92.9377,85.57,51,20,5.75
555,Hunfeld,DE,2022-07-17 23:30:08,50.6797,9.7673,61.77,50,87,2.1
556,Obera,AR,2022-07-17 23:30:08,-27.4871,-55.1199,44.01,94,0,2.8
557,Ngunguru,NZ,2022-07-17 23:30:09,-35.6167,174.5,58.06,66,100,12.66
558,Taywarah,AF,2022-07-17 23:30:09,33.35,64.4167,59.58,20,0,4.36
559,Suntar,RU,2022-07-17 23:30:10,62.1444,117.6319,64.15,72,90,4.74
560,Bereda,ES,2022-07-17 23:30:10,43.2686,-7.5406,65.14,99,76,1.01
561,Huarmey,PE,2022-07-17 23:30:11,-10.0681,-78.1522,62.96,84,7,10.74
562,Pouembout,NC,2022-07-17 23:30:11,-21.1333,164.9,77.7,63,22,6.89
563,Kudeyevskiy,RU,2022-07-17 23:30:12,54.8758,56.7567,61.32,88,99,3.22
564,Ashland,US,2022-07-17 23:29:05,40.8167,-82.2665,70.97,96,100,8.68
565,Bowen,AU,2022-07-17 23:27:48,-20.0167,148.2333,65.52,75,0,7.83
566,Sherlovaya Gora,RU,2022-07-17 23:30:13,50.5667,116.25,63.7,80,100,5.03
567,Cafarnaum,BR,2022-07-17 23:30:14,-11.6936,-41.4683,65.77,63,1,11.39
568,Beshpagir,RU,2022-07-17 23:30:14,45.0217,42.3808,74.62,62,38,5.41
569,Atasu,KZ,2022-07-17 23:30:15,48.6814,71.6433,65.52,57,0,6.67
570,Hualmay,PE,2022-07-17 23:30:15,-11.0964,-77.6139,62.1,82,18,9.95
571,Dondo,MZ,2022-07-17 23:30:16,-19.6094,34.7431,62.33,93,73,4.94
572,Havre,FR,2022-07-17 23:30:16,49.5833,0.3333,78.57,29,0,8.05
